[
  {
    "name": "Independence Palace",
    "address": "135 Nam Kỳ Khởi Nghĩa, Phường Bến Thành, Quận 1, Hồ Chí Minh 700000",
    "coords": {
      "latitude": 10.7747201,
      "longitude": 106.69930120000004
    },
    "image_url": "https://media.glassdoor.com/l/de/cd/ae/b6/the-face-shop.jpg"
  },
  {
    "name": "Turtle Lake",
    "address": "Turtle Lake, phường 6, District 3, Ho Chi Minh City",
    "coords": {
      "latitude": 10.780060,
      "longitude": 106.693410
    },
    "image_url": "http://dreamercosmetic.com/uploads/source/chekd101/trangdiem/bomyphamchanel5moncaocap11600x450.jpg"
  },
  {
    "name": "Landmark 81",
    "address": "208 Nguyễn Hữu Cảnh, Phường 22, Bình Thạnh, Hồ Chí Minh 700000",
    "coords": {
      "latitude": 10.7951612,
      "longitude": 106.7195944
    },
    "image_url": "https://www.vinpearl.com/landmark81/wp-content/uploads/sites/39/2018/09/VP-Luxury-Landmark-81-22-bot.jpg"
  },
  {
    "name": "Bui Vien",
    "address": "Bùi ViệnPhạm Ngũ Lão, Quận 1, Hồ Chí Minh",
    "coords": {
      "latitude": 10.7667463,
      "longitude": 106.69247589999998
    },
    "image_url": "http://i.dtinews.vn/images/editor/images/ngovan/12018/19/Big/pho-di-bo-bui-vien-anh-hoang-trieuimg8663-1516201119295.jpg"
  },
  {
    "name": "Ben Thanh Market",
    "address": "Chợ, Lê Lợi, Phường Bến Thành, Quận 1, Hồ Chí Minh 700000",
    "coords": {
      "latitude": 10.772550,
      "longitude": 106.699417
    },
    "image_url": "http://static.asiawebdirect.com/m/bangkok/portals/vietnam/homepage/ho-chi-minh-city/ben-thanh-market/allParagraphs/BucketComponent/ListingContainer/03/image/ben-thanh-market-ext.jpg"
  }
]